{"drone":"Day Two","time":"19/4/2019\n        21:27:30","id":"1234","latitude":"-33.892196166666665","longitude":"151.13123349999998","pilot":"1234","key":"123","contract":"123","category":"Government","_id":"5cb9b169ac4609367065c7e8"}{"drone":"Day 4","time":"13/5/2019\n        11:55:58","id":"5678","latitude":"-33.8591744","longitude":"151.2742912","pilot":"Milan Gurung","key":"5678","contract":"5678","category":"Military","_id":"5cd8ceb31e429f0148883da1"}{"drone":"Day 1","time":"13/5/2019\n        22:35:51","id":"123","latitude":"-33.97031300417121","longitude":"151.1092571849743","pilot":"ram","key":"123","contract":"456","category":"Government","_id":"5cd9a0737815d830e4988c2e"}{"drone":"Day 3","time":"13/5/2019\n        22:39:01","id":"123","latitude":"-33.97038262177706","longitude":"151.10909167335538","pilot":"shyam","key":"123","contract":"345","category":"Civil","_id":"5cd9a134b731850ac0742f1c"}{"drone":"Day 1","time":"13/5/2019\n        22:44:41","id":"111","latitude":"-33.97038957621057","longitude":"151.10909623443743","pilot":"amit","key":"123","contract":"123","category":"Civil","_id":"5cd9a28474802c36749470ab"}{"drone":"Day 1","time":"14/5/2019\n        07:02:02","serial":"1234","latitude":"-33.970403887789146","longitude":"151.1093237816395","pilot":"amit","key":"123","contract":"345","category":"Civil","_id":"5cda1715e83dca01ccd3aae6"}{"drone":"Day 1","time":"14/5/2019\n        07:11:07","serial":"asfas","latitude":"-33.97026734081647","longitude":"151.1093220238553","pilot":"amit","key":"345","contract":"345","category":"Government","_id":"5cda19354bd00b1ebc59fcf8"}{"drone":"Day 1","time":"22/5/2019\n        18:05:26","serial":"aaa1223","latitude":"-33.871825199999996","longitude":"151.2054148","pilot":"shasank","key":"1233","contract":"123456","category":"","_id":"5ce6887c71e94f265067b63c"}{"drone":"Day 1","time":"22/5/2019\n        18:06:18","serial":"1111","latitude":"-33.871825199999996","longitude":"151.2054148","pilot":"aaaaa","key":"123","contract":"12345","category":"Government","_id":"5ce6887c71e94f265067b63d"}{"drone":"Day 1","time":"23/5/2019\n        21:47:46","serial":"1234","latitude":"-33.8191138","longitude":"150.99475529999998","pilot":"23525","key":"25255","contract":"222222","category":"Government","_id":"5ce6887c71e94f265067b63e"}{"drone":"Day 1","time":"23/5/2019\n        23:19:58","serial":"aaa","latitude":"-33.8191138","longitude":"150.99475529999998","pilot":"asaa","key":"1121121","contract":"12234455565","category":"Government","_id":"5ce7538710b5171fa03aa419"}{"drone":"Day 1","time":"24/5/2019\n        12:13:04","serial":"1234","latitude":"-33.8191138","longitude":"150.99475529999998","pilot":"amit","key":"12344","contract":"045222222","category":"","_id":"5ce7538710b5171fa03aa41a"}{"drone":"Day 1","time":"24/5/2019\n        20:18:15","serial":"1234","latitude":"-33.8191138","longitude":"150.99475529999998","pilot":"shasank","key":"1234","contract":"0452324","category":"Civil","_id":"5ce7c5efb0f80b2ac4fbb192"}{"drone":"Day 1","time":"19/6/2019\n        13:02:20","MemberNumber":"11","latitude":"-33.8227329","longitude":"150.9889351","Name":"asf","Address":"1212","contact":"231","CheckInDate":"","CheckOutDate":"0002-02-24","Room":"Double","_id":"5d09a729dcfd7c1f640e012f"}{"drone":"Day 1","time":"19/6/2019\n        13:07:06","MemberNumber":"121","latitude":"-33.8227329","longitude":"150.9889351","Name":"","Address":"","contact":"","CheckInDate":"","CheckOutDate":"","Room":"Double","_id":"5d09a729dcfd7c1f640e0130"}{"drone":"Day 1","time":"19/6/2019\n        13:07:57","MemberNumber":"1234","latitude":"-33.8227329","longitude":"150.9889351","Name":"amit","Address":"","contact":"234","CheckInDate":"","CheckOutDate":"","Room":"Single","_id":"5d09a729dcfd7c1f640e0131"}{"drone":"Day 1","time":"19/6/2019\n        13:10:11","MemberNumber":"111","latitude":"-33.8227329","longitude":"150.9889351","Name":"fasf","Address":"22","contact":"341","CheckInDate":"","CheckOutDate":"","Room":"Deluxe","_id":"5d09a7a1b4ef1923dc1b7cc1"}{"drone":"Day 1","time":"19/6/2019\n        13:12:06","MemberNumber":"12121","latitude":"-33.8227329","longitude":"150.9889351","Name":"shasank","Address":"232","contact":"3434","CheckInDate":"","CheckOutDate":"","Room":"Double","_id":"5d09a8295b8b711a209db7d9"}{"drone":"Day 1","time":"19/6/2019\n        13:30:34","MemberNumber":"1234","latitude":"-33.8227329","longitude":"150.9889351","Name":"dipesh","Address":"3443","contact":"3433","CheckInDate":"","CheckOutDate":"0004-03-31","Room":"Double","_id":"5d09ba3e86790e2424bcaf2c"}{"drone":"Day 1","time":"19/6/2019\n        13:38:33","MemberNumber":"11","latitude":"-33.8227329","longitude":"150.9889351","Name":"aman","Address":"","contact":"","CheckInDate":"","CheckOutDate":"","Room":"","_id":"5d09ba3e86790e2424bcaf2d"}{"drone":"Day 1","time":"19/6/2019\n        13:44:54","MemberNumber":"121","latitude":"-33.8227329","longitude":"150.9889351","Name":"ram","Address":"23","contact":"232","CheckInDate":"","CheckOutDate":"0054-04-05","Room":"Single","_id":"5d09ba3e86790e2424bcaf2e"}{"drone":"Day 1","time":"19/6/2019\n        13:57:41","MemberNumber":"1234","latitude":"-33.8227329","longitude":"150.9889351","Name":"amit","Address":"12121212","contact":"121210","CheckInDate":"0001-12-12","CheckOutDate":"0455-12-31","Room":"Double","_id":"5d09ba3e86790e2424bcaf2f"}{"drone":"Day 1","time":"19/6/2019\n        14:23:10","MemberNumber":"1234","Name":"1222","Address":"2123","contact":"3524214","CheckInDate":"2019-06-14","CheckOutDate":"2019-06-12","Room":"Double","_id":"5d09ba3e86790e2424bcaf30"}{"hotel":"Day 1","time":"19/6/2019\n        14:31:39","MemberNumber":"1234","Name":"12333","Address":"111111","contact":"45343355","CheckInDate":"2019-06-14","CheckOutDate":"2019-06-12","Room":"Double","_id":"5d09bb7147c86f18e4eccf35"}{"hotel":"Day 1","time":"19/6/2019\n        14:32:02","MemberNumber":"","Name":"","Address":"","contact":"","CheckInDate":"","CheckOutDate":"","Room":"Double","_id":"5d09bb7147c86f18e4eccf36"}{"hotel":"Day 1","time":"19/6/2019\n        14:32:07","MemberNumber":"","Name":"","Address":"","contact":"","CheckInDate":"","CheckOutDate":"","Room":"","_id":"5d09bb7147c86f18e4eccf37"}{"hotel":"Day 1","time":"19/6/2019\n        14:32:36","MemberNumber":"12222","Name":"","Address":"","contact":"","CheckInDate":"","CheckOutDate":"","Room":"","_id":"5d09bb7147c86f18e4eccf38"}{"hotel":"Day 1","time":"19/6/2019\n        14:46:42","MemberNumber":"1234","Name":"sita prasad baskota","Address":"12 bellevue","contact":"12","CheckInDate":"2019-06-14","CheckOutDate":"2019-06-13","Room":"Single","_id":"5d09be945c748012982735d5"}{"hotel":"Day 1","time":"19/6/2019\n        14:48:02","MemberNumber":"1234","Name":"rama bastola","Address":"12 patrick street","contact":"1211","CheckInDate":"2019-05-29","CheckOutDate":"2019-06-21","Room":"Deluxe","_id":"5d09be945c748012982735d6"}{"hotel":"Book Room","time":"19/6/2019\n        14:59:36","MemberNumber":"1234","Name":"sita","Address":"46, WYANGALA CRES","contact":"3","CheckInDate":"2019-06-20","CheckOutDate":"2019-06-27","Room":"Deluxe","_id":"5d09c255523b2c0574407332"}{"hotel":"Book Room","time":"19/6/2019\n        15:00:28","MemberNumber":"1234","Name":"sdf","Address":"46, WYANGALA CRES","contact":"","CheckInDate":"","CheckOutDate":"","Room":"","_id":"5d09c255523b2c0574407333"}{"hotel":"Book Room","time":"19/6/2019\n        15:05:48","MemberNumber":"2345","Name":"shasank ghimire","Address":"12 patrick street","contact":"33","CheckInDate":"2019-06-19","CheckOutDate":"2019-06-21","Room":"Double","_id":"5d09c31a523b2c0574407334"}{"hotel":"Book Room","time":"19/6/2019\n        15:07:01","MemberNumber":"1234","Name":"sita","Address":"22 smsms","contact":"1212","CheckInDate":"2019-06-15","CheckOutDate":"2019-06-29","Room":"Deluxe","_id":"5d09c31a523b2c0574407335"}{"hotel":"Book Room","time":"20/6/2019\n        14:52:28","MemberNumber":"1234","Name":"sita","Address":"46, Wyangala Cres","contact":"","CheckInDate":"","CheckOutDate":"","Room":"","_id":"5d0ba9bcb1905e3610c7a58e"}{"hotel":"Book Room","time":"21/6/2019\n        01:33:38","MemberNumber":"shasank","Name":"7777","Address":"46, Wyangala Cres","contact":"98787656","CheckInDate":"2019-06-12","CheckOutDate":"2019-06-13","Room":"Double","_id":"5d0ba9bcb1905e3610c7a58f"}{"hotel":"Book Room","time":"21/6/2019\n        22:06:18","MemberNumber":"1234","Name":"sita","Address":"46, Wyangala Cres","contact":"1233333","CheckInDate":"2019-06-21","CheckOutDate":"2019-06-05","Room":"Single","_id":"5d0cc843b1905e3610c7a590"}